{
"type": "FeatureCollection",
"name": "210712全員の不安",
"crs": { "type": "name", "properties": { "name": "urn:ogc:def:crs:EPSG::6677" } },
"features": [
{ "type": "Feature", "properties": { "id": 1, "X": 139.4350714, "Y": 35.5319571, "Name": "横断が不安な歩道", "descriptio": null, "category": null, "person": "enomoto " }, "geometry": { "type": "Point", "coordinates": [ 139.4350714, 35.5319571 ] } },
{ "type": "Feature", "properties": { "id": 2, "X": 139.4369699, "Y": 35.5318719, "Name": "呼び込み", "descriptio": null, "category": null, "person": "enomoto " }, "geometry": { "type": "Point", "coordinates": [ 139.4369699, 35.5318719 ] } },
{ "type": "Feature", "properties": { "id": 3, "X": 139.4342931, "Y": 35.5323696, "Name": "横断時間が短い", "descriptio": null, "category": null, "person": "enomoto " }, "geometry": { "type": "Point", "coordinates": [ 139.4342931, 35.5323696 ] } },
{ "type": "Feature", "properties": { "id": 4, "X": 139.4307045, "Y": 35.5320597, "Name": "横断歩道の待ち時間が長い", "descriptio": null, "category": null, "person": "enomoto " }, "geometry": { "type": "Point", "coordinates": [ 139.4307045, 35.5320597 ] } },
{ "type": "Feature", "properties": { "id": 5, "X": 139.4294946, "Y": 35.5332981, "Name": "蚊に刺される", "descriptio": null, "category": null, "person": "hariya " }, "geometry": { "type": "Point", "coordinates": [ 139.4294946, 35.5332981 ] } },
{ "type": "Feature", "properties": { "id": 6, "X": 139.4295379, "Y": 35.5331605, "Name": "イヤホンしていて無視", "descriptio": null, "category": null, "person": "hariya " }, "geometry": { "type": "Point", "coordinates": [ 139.429537900000014, 35.5331605 ] } },
{ "type": "Feature", "properties": { "id": 7, "X": 139.4325844, "Y": 35.5322534, "Name": "自転車とすれ違う時", "descriptio": null, "category": null, "person": "hariya " }, "geometry": { "type": "Point", "coordinates": [ 139.4325844, 35.5322534 ] } },
{ "type": "Feature", "properties": { "id": 8, "X": 139.4307631, "Y": 35.5321333, "Name": "日影がない", "descriptio": null, "category": null, "person": "hariya " }, "geometry": { "type": "Point", "coordinates": [ 139.4307631, 35.5321333 ] } },
{ "type": "Feature", "properties": { "id": 9, "X": 139.4356011, "Y": 35.5315378, "Name": "よく警察官がいる", "descriptio": null, "category": null, "person": "hariya " }, "geometry": { "type": "Point", "coordinates": [ 139.435601100000014, 35.5315378 ] } },
{ "type": "Feature", "properties": { "id": 10, "X": 139.434382, "Y": 35.5323443, "Name": "信号変わるのが遅い", "descriptio": null, "category": null, "person": "hariya " }, "geometry": { "type": "Point", "coordinates": [ 139.434382, 35.5323443 ] } },
{ "type": "Feature", "properties": { "id": 11, "X": 139.4356172, "Y": 35.5316709, "Name": "車とぶつかりそうになる", "descriptio": null, "category": null, "person": "hariya " }, "geometry": { "type": "Point", "coordinates": [ 139.4356172, 35.5316709 ] } },
{ "type": "Feature", "properties": { "id": 12, "X": 139.4374716, "Y": 35.5317248, "Name": "20分に1本の電車", "descriptio": null, "category": null, "person": "hariya " }, "geometry": { "type": "Point", "coordinates": [ 139.4374716, 35.5317248 ] } },
{ "type": "Feature", "properties": { "id": 13, "X": 139.4304702, "Y": 35.5330147, "Name": "東門開いているかわからないのに行くとき", "descriptio": null, "category": null, "person": "hariya " }, "geometry": { "type": "Point", "coordinates": [ 139.4304702, 35.5330147 ] } },
{ "type": "Feature", "properties": { "id": 14, "X": 139.4372248, "Y": 35.5320129, "Name": "人ごみの中での大金の所持", "descriptio": null, "category": null, "person": "hariya " }, "geometry": { "type": "Point", "coordinates": [ 139.4372248, 35.5320129 ] } },
{ "type": "Feature", "properties": { "id": 15, "X": 139.4369483, "Y": 35.5320277, "Name": "駅前の鳩", "descriptio": null, "category": null, "person": "hariya " }, "geometry": { "type": "Point", "coordinates": [ 139.436948300000012, 35.5320277 ] } },
{ "type": "Feature", "properties": { "id": 16, "X": 139.43318, "Y": 35.5323119, "Name": "歩道を走る自転車", "descriptio": null, "category": null, "person": "hata " }, "geometry": { "type": "Point", "coordinates": [ 139.43318, 35.5323119 ] } },
{ "type": "Feature", "properties": { "id": 17, "X": 139.4349288, "Y": 35.5319714, "Name": "落ちてるセミ", "descriptio": null, "category": null, "person": "hata " }, "geometry": { "type": "Point", "coordinates": [ 139.4349288, 35.5319714 ] } },
{ "type": "Feature", "properties": { "id": 18, "X": 139.436978, "Y": 35.531489, "Name": "駅前にいるハト", "descriptio": null, "category": null, "person": "hata " }, "geometry": { "type": "Point", "coordinates": [ 139.436978, 35.531489 ] } },
{ "type": "Feature", "properties": { "id": 19, "X": 139.4366991, "Y": 35.531334, "Name": "呼びこみ", "descriptio": null, "category": null, "person": "hata " }, "geometry": { "type": "Point", "coordinates": [ 139.4366991, 35.531334 ] } },
{ "type": "Feature", "properties": { "id": 20, "X": 139.4357068, "Y": 35.531485, "Name": "罵声を浴びてくる爺さん", "descriptio": null, "category": null, "person": "hata " }, "geometry": { "type": "Point", "coordinates": [ 139.4357068, 35.531485 ] } },
{ "type": "Feature", "properties": { "id": 21, "X": 139.4334804, "Y": 35.534929, "Name": "蚊に刺される", "descriptio": null, "category": null, "person": "hata " }, "geometry": { "type": "Point", "coordinates": [ 139.4334804, 35.534929 ] } },
{ "type": "Feature", "properties": { "id": 22, "X": 139.4299399, "Y": 35.5320151, "Name": "熱中症", "descriptio": null, "category": null, "person": "hata " }, "geometry": { "type": "Point", "coordinates": [ 139.4299399, 35.5320151 ] } },
{ "type": "Feature", "properties": { "id": 23, "X": 139.4306748, "Y": 35.5320468, "Name": "よく引っかかる信号", "descriptio": null, "category": null, "person": "iwasaki " }, "geometry": { "type": "Point", "coordinates": [ 139.4306748, 35.5320468 ] } },
{ "type": "Feature", "properties": { "id": 24, "X": 139.4342369, "Y": 35.5323284, "Name": "絶対引っかかる信号", "descriptio": null, "category": null, "person": "iwasaki " }, "geometry": { "type": "Point", "coordinates": [ 139.4342369, 35.5323284 ] } },
{ "type": "Feature", "properties": { "id": 25, "X": 139.4314734, "Y": 35.5321264, "Name": "特に自転車が多い歩道", "descriptio": null, "category": null, "person": "iwasaki " }, "geometry": { "type": "Point", "coordinates": [ 139.431473399999987, 35.5321264 ] } },
{ "type": "Feature", "properties": { "id": 26, "X": 139.4369118, "Y": 35.5318654, "Name": "呼び込みが多い", "descriptio": "動物の愛護団体の募金を見ると胸が痛くなる", "category": null, "person": "kamemoto " }, "geometry": { "type": "Point", "coordinates": [ 139.4369118, 35.5318654 ] } },
{ "type": "Feature", "properties": { "id": 27, "X": 139.4285954, "Y": 35.5328378, "Name": "蛇が出そう", "descriptio": null, "category": null, "person": "kamemoto " }, "geometry": { "type": "Point", "coordinates": [ 139.4285954, 35.5328378 ] } },
{ "type": "Feature", "properties": { "id": 28, "X": 139.4359327, "Y": 35.5313928, "Name": "ずっと屋根がない", "descriptio": "天候があれているときに不安になる", "category": null, "person": "kamemoto " }, "geometry": { "type": "Point", "coordinates": [ 139.4359327, 35.5313928 ] } },
{ "type": "Feature", "properties": { "id": 29, "X": 139.431452, "Y": 35.5321249, "Name": "駐輪が多く道が狭い", "descriptio": "よけようとして、向かいからくる自転車との接触が不安", "category": null, "person": "kamemoto " }, "geometry": { "type": "Point", "coordinates": [ 139.431452, 35.5321249 ] } },
{ "type": "Feature", "properties": { "id": 30, "X": 139.4341959, "Y": 35.5323296, "Name": "赤信号が長い", "descriptio": null, "category": null, "person": "kamemoto " }, "geometry": { "type": "Point", "coordinates": [ 139.4341959, 35.5323296 ] } },
{ "type": "Feature", "properties": { "id": 31, "X": 139.4350686, "Y": 35.5318832, "Name": "道が狭い", "descriptio": "横に広がって歩いてくる逆方向の人とぶつかりそうで不安", "category": null, "person": "kamemoto " }, "geometry": { "type": "Point", "coordinates": [ 139.4350686, 35.5318832 ] } },
{ "type": "Feature", "properties": { "id": 32, "X": 139.4329084, "Y": 35.5322517, "Name": "歩道を走る自転車が多い", "descriptio": "自転車との接触が不安", "category": null, "person": "kamemoto " }, "geometry": { "type": "Point", "coordinates": [ 139.4329084, 35.5322517 ] } },
{ "type": "Feature", "properties": { "id": 33, "X": 139.4362653, "Y": 35.5315837, "Name": "鳩が多い", "descriptio": "ふんが落ちてこないか不安になる", "category": null, "person": "kamemoto " }, "geometry": { "type": "Point", "coordinates": [ 139.4362653, 35.5315837 ] } },
{ "type": "Feature", "properties": { "id": 34, "X": 139.4307098, "Y": 35.5320938, "Name": "信号の点滅のタイミングが早い", "descriptio": null, "category": null, "person": "kamemoto " }, "geometry": { "type": "Point", "coordinates": [ 139.430709799999988, 35.5320938 ] } },
{ "type": "Feature", "properties": { "id": 35, "X": 139.4295099, "Y": 35.5332386, "Name": "銀杏が落ちている", "descriptio": "滑って転ばないか不安", "category": null, "person": "kamemoto " }, "geometry": { "type": "Point", "coordinates": [ 139.4295099, 35.5332386 ] } },
{ "type": "Feature", "properties": { "id": 36, "X": 139.4353419, "Y": 35.5318241, "Name": "喫煙所", "descriptio": null, "category": null, "person": "makino " }, "geometry": { "type": "Point", "coordinates": [ 139.4353419, 35.5318241 ] } },
{ "type": "Feature", "properties": { "id": 37, "X": 139.4306395, "Y": 35.5320648, "Name": "自転車と歩行者の交通量の多さ", "descriptio": null, "category": null, "person": "makino " }, "geometry": { "type": "Point", "coordinates": [ 139.430639500000012, 35.5320648 ] } },
{ "type": "Feature", "properties": { "id": 38, "X": 139.4333546, "Y": 35.532291, "Name": "ベルを鳴らさないで自転車で横を通ろうとするおばさん", "descriptio": null, "category": null, "person": "makino " }, "geometry": { "type": "Point", "coordinates": [ 139.4333546, 35.532291 ] } },
{ "type": "Feature", "properties": { "id": 39, "X": 139.4356068, "Y": 35.5315961, "Name": "横断歩道で止まってるれない車", "descriptio": null, "category": null, "person": "makino " }, "geometry": { "type": "Point", "coordinates": [ 139.435606799999988, 35.5315961 ] } },
{ "type": "Feature", "properties": { "id": 40, "X": 139.4371192, "Y": 35.5320116, "Name": "演説", "descriptio": null, "category": null, "person": "makino " }, "geometry": { "type": "Point", "coordinates": [ 139.437119200000012, 35.5320116 ] } },
{ "type": "Feature", "properties": { "id": 41, "X": 139.4375933, "Y": 35.5320341, "Name": "曲がり角でぶつかりそうになる", "descriptio": null, "category": null, "person": "matuzaki " }, "geometry": { "type": "Point", "coordinates": [ 139.4375933, 35.5320341 ] } },
{ "type": "Feature", "properties": { "id": 42, "X": 139.4371239, "Y": 35.5322393, "Name": "エスカレータを駆け上がる人が多い", "descriptio": null, "category": null, "person": "matuzaki " }, "geometry": { "type": "Point", "coordinates": [ 139.437123899999989, 35.5322393 ] } },
{ "type": "Feature", "properties": { "id": 43, "X": 139.4304045, "Y": 35.5355613, "Name": "すぐに変わる信号", "descriptio": null, "category": null, "person": "matuzaki " }, "geometry": { "type": "Point", "coordinates": [ 139.4304045, 35.5355613 ] } },
{ "type": "Feature", "properties": { "id": 44, "X": 139.434968, "Y": 35.5328226, "Name": "細い道", "descriptio": null, "category": null, "person": "matuzaki " }, "geometry": { "type": "Point", "coordinates": [ 139.434968, 35.5328226 ] } },
{ "type": "Feature", "properties": { "id": 45, "X": 139.4322346, "Y": 35.5321841, "Name": "歩道を走る自転車", "descriptio": null, "category": null, "person": "matuzaki " }, "geometry": { "type": "Point", "coordinates": [ 139.432234599999987, 35.5321841 ] } },
{ "type": "Feature", "properties": { "id": 46, "X": 139.4362521, "Y": 35.5335981, "Name": "よく傘があたる", "descriptio": null, "category": null, "person": "matuzaki " }, "geometry": { "type": "Point", "coordinates": [ 139.4362521, 35.5335981 ] } },
{ "type": "Feature", "properties": { "id": 47, "X": 139.430619, "Y": 35.5330441, "Name": "整備されていない道", "descriptio": null, "category": null, "person": "matuzaki " }, "geometry": { "type": "Point", "coordinates": [ 139.430619, 35.5330441 ] } },
{ "type": "Feature", "properties": { "id": 48, "X": 139.4354609, "Y": 35.5327386, "Name": "一時停止しない車", "descriptio": null, "category": null, "person": "matuzaki " }, "geometry": { "type": "Point", "coordinates": [ 139.43546090000001, 35.5327386 ] } },
{ "type": "Feature", "properties": { "id": 49, "X": 139.4312893, "Y": 35.5321077, "Name": "人とぶつかりそうになる", "descriptio": null, "category": null, "person": "matuzaki " }, "geometry": { "type": "Point", "coordinates": [ 139.4312893, 35.5321077 ] } },
{ "type": "Feature", "properties": { "id": 50, "X": 139.4303208, "Y": 35.5350793, "Name": "葉っぱや虫が落ちてくる", "descriptio": null, "category": null, "person": "matuzaki " }, "geometry": { "type": "Point", "coordinates": [ 139.4303208, 35.5350793 ] } },
{ "type": "Feature", "properties": { "id": 51, "X": 139.4305283, "Y": 35.5333622, "Name": "道が狭い", "descriptio": null, "category": null, "person": "nakano " }, "geometry": { "type": "Point", "coordinates": [ 139.4305283, 35.5333622 ] } },
{ "type": "Feature", "properties": { "id": 52, "X": 139.4307074, "Y": 35.5321406, "Name": "信号が変わるのがはやい", "descriptio": null, "category": null, "person": "nakano " }, "geometry": { "type": "Point", "coordinates": [ 139.430707399999989, 35.5321406 ] } },
{ "type": "Feature", "properties": { "id": 53, "X": 139.4354184, "Y": 35.53281, "Name": "なんだか薄暗い", "descriptio": null, "category": null, "person": "nakano " }, "geometry": { "type": "Point", "coordinates": [ 139.4354184, 35.53281 ] } },
{ "type": "Feature", "properties": { "id": 54, "X": 139.4342597, "Y": 35.5323254, "Name": "信号が変わるのがはやい", "descriptio": null, "category": null, "person": "nakano " }, "geometry": { "type": "Point", "coordinates": [ 139.434259700000013, 35.5323254 ] } },
{ "type": "Feature", "properties": { "id": 55, "X": 139.4377737, "Y": 35.5315413, "Name": "人が全然いない", "descriptio": null, "category": null, "person": "nakano " }, "geometry": { "type": "Point", "coordinates": [ 139.4377737, 35.5315413 ] } },
{ "type": "Feature", "properties": { "id": 56, "X": 139.4320508, "Y": 35.5322933, "Name": "閑散としていて怖い", "descriptio": null, "category": null, "person": "nakano " }, "geometry": { "type": "Point", "coordinates": [ 139.432050800000013, 35.5322933 ] } },
{ "type": "Feature", "properties": { "id": 57, "X": 139.4352988, "Y": 35.5321154, "Name": "治安がわるそうな路地", "descriptio": null, "category": null, "person": "nakano " }, "geometry": { "type": "Point", "coordinates": [ 139.4352988, 35.5321154 ] } },
{ "type": "Feature", "properties": { "id": 58, "X": 139.4359191, "Y": 35.5331104, "Name": "伊勢丹がつぶれていきにくい", "descriptio": null, "category": null, "person": "nakano " }, "geometry": { "type": "Point", "coordinates": [ 139.4359191, 35.5331104 ] } },
{ "type": "Feature", "properties": { "id": 59, "X": 139.4359413, "Y": 35.5314055, "Name": "人通りが多い", "descriptio": null, "category": null, "person": "nakano " }, "geometry": { "type": "Point", "coordinates": [ 139.4359413, 35.5314055 ] } },
{ "type": "Feature", "properties": { "id": 60, "X": 139.4358688, "Y": 35.5325108, "Name": "エスカレーターが古い", "descriptio": null, "category": null, "person": "nakano " }, "geometry": { "type": "Point", "coordinates": [ 139.4358688, 35.5325108 ] } },
{ "type": "Feature", "properties": { "id": 61, "X": 139.4336112, "Y": 35.5323051, "Name": "日差しが強い", "descriptio": null, "category": null, "person": "nakano " }, "geometry": { "type": "Point", "coordinates": [ 139.4336112, 35.5323051 ] } },
{ "type": "Feature", "properties": { "id": 62, "X": 139.4272212, "Y": 35.5304048, "Name": "行ったことがない道", "descriptio": null, "category": null, "person": "saito " }, "geometry": { "type": "Point", "coordinates": [ 139.4272212, 35.5304048 ] } },
{ "type": "Feature", "properties": { "id": 63, "X": 139.4330821, "Y": 35.5322454, "Name": "日影がない暑い道", "descriptio": null, "category": null, "person": "saito " }, "geometry": { "type": "Point", "coordinates": [ 139.4330821, 35.5322454 ] } },
{ "type": "Feature", "properties": { "id": 64, "X": 139.437049, "Y": 35.5319424, "Name": "混雑時は人とぶつかりそう", "descriptio": null, "category": null, "person": "saito " }, "geometry": { "type": "Point", "coordinates": [ 139.437049, 35.5319424 ] } },
{ "type": "Feature", "properties": { "id": 65, "X": 139.430176, "Y": 35.5328463, "Name": "蝶々に追いかけ回された", "descriptio": null, "category": null, "person": "saito " }, "geometry": { "type": "Point", "coordinates": [ 139.430176, 35.5328463 ] } },
{ "type": "Feature", "properties": { "id": 66, "X": 139.4373005, "Y": 35.5319693, "Name": "ステスクで迷う時がある", "descriptio": null, "category": null, "person": "saito " }, "geometry": { "type": "Point", "coordinates": [ 139.4373005, 35.5319693 ] } },
{ "type": "Feature", "properties": { "id": 67, "X": 139.4370151, "Y": 35.5319187, "Name": "一人でいると怪しい人に話しかけられる", "descriptio": null, "category": null, "person": "saito " }, "geometry": { "type": "Point", "coordinates": [ 139.4370151, 35.5319187 ] } },
{ "type": "Feature", "properties": { "id": 68, "X": 139.4301456, "Y": 35.5320109, "Name": "夏はハチがいる", "descriptio": null, "category": null, "person": "saito " }, "geometry": { "type": "Point", "coordinates": [ 139.4301456, 35.5320109 ] } },
{ "type": "Feature", "properties": { "id": 69, "X": 139.4306369, "Y": 35.5322395, "Name": "自転車とぶつかりそう", "descriptio": null, "category": null, "person": "saito " }, "geometry": { "type": "Point", "coordinates": [ 139.4306369, 35.5322395 ] } },
{ "type": "Feature", "properties": { "id": 70, "X": 139.4311904, "Y": 35.5320927, "Name": "信号に間に合うか間に合わないかの地点", "descriptio": null, "category": null, "person": "saito " }, "geometry": { "type": "Point", "coordinates": [ 139.4311904, 35.5320927 ] } },
{ "type": "Feature", "properties": { "id": 71, "X": 139.4361841, "Y": 35.5321264, "Name": "酔っ払いが多い(居酒屋)", "descriptio": null, "category": null, "person": "wakasa " }, "geometry": { "type": "Point", "coordinates": [ 139.4361841, 35.5321264 ] } },
{ "type": "Feature", "properties": { "id": 72, "X": 139.4357013, "Y": 35.5315065, "Name": "酔っ払いがいる", "descriptio": null, "category": null, "person": "wakasa " }, "geometry": { "type": "Point", "coordinates": [ 139.4357013, 35.5315065 ] } },
{ "type": "Feature", "properties": { "id": 73, "X": 139.429661, "Y": 35.5321875, "Name": "蚊に刺される", "descriptio": null, "category": null, "person": "wakasa " }, "geometry": { "type": "Point", "coordinates": [ 139.429661, 35.5321875 ] } },
{ "type": "Feature", "properties": { "id": 74, "X": 139.4371497, "Y": 35.531716, "Name": "駅の中が混んでて密", "descriptio": null, "category": null, "person": "wakasa " }, "geometry": { "type": "Point", "coordinates": [ 139.4371497, 35.531716 ] } },
{ "type": "Feature", "properties": { "id": 75, "X": 139.4324397, "Y": 35.5321788, "Name": "歩道を走る自転車が多い", "descriptio": null, "category": null, "person": "wakasa " }, "geometry": { "type": "Point", "coordinates": [ 139.4324397, 35.5321788 ] } },
{ "type": "Feature", "properties": { "id": 76, "X": 139.4377827, "Y": 35.531716, "Name": "駅前のハトが多い", "descriptio": null, "category": null, "person": "wakasa " }, "geometry": { "type": "Point", "coordinates": [ 139.437782700000014, 35.531716 ] } },
{ "type": "Feature", "properties": { "id": 77, "X": 139.4359588, "Y": 35.5323796, "Name": "夜は暗い", "descriptio": null, "category": null, "person": "wakasa " }, "geometry": { "type": "Point", "coordinates": [ 139.4359588, 35.5323796 ] } },
{ "type": "Feature", "properties": { "id": 78, "X": 139.431796, "Y": 35.5321439, "Name": "後ろからくる自転車", "descriptio": null, "category": null, "person": "wakasa " }, "geometry": { "type": "Point", "coordinates": [ 139.431796, 35.5321439 ] } },
{ "type": "Feature", "properties": { "id": 79, "X": 139.429897, "Y": 35.531978, "Name": "蜂がよく出現する", "descriptio": null, "category": null, "person": "wakasa " }, "geometry": { "type": "Point", "coordinates": [ 139.429897, 35.531978 ] } },
{ "type": "Feature", "properties": { "id": 80, "X": 139.4341885, "Y": 35.5323359, "Name": "交通量が多い", "descriptio": null, "category": null, "person": "wakasa " }, "geometry": { "type": "Point", "coordinates": [ 139.4341885, 35.5323359 ] } },
{ "type": "Feature", "properties": { "id": 81, "X": 139.4307017, "Y": 35.5320478, "Name": "急に走り出す子供", "descriptio": null, "category": null, "person": "wakasa " }, "geometry": { "type": "Point", "coordinates": [ 139.430701699999986, 35.5320478 ] } },
{ "type": "Feature", "properties": { "id": 82, "X": 139.4337165, "Y": 35.5322399, "Name": "罵声を浴びせてくる爺さん", "descriptio": null, "category": null, "person": "wakasa " }, "geometry": { "type": "Point", "coordinates": [ 139.4337165, 35.5322399 ] } },
{ "type": "Feature", "properties": { "id": 83, "X": 139.435476, "Y": 35.5316375, "Name": "ガラの悪い人が多い", "descriptio": null, "category": null, "person": "wakasa " }, "geometry": { "type": "Point", "coordinates": [ 139.435476, 35.5316375 ] } },
{ "type": "Feature", "properties": { "id": 84, "X": 139.4352614, "Y": 35.5317684, "Name": "タバコ臭い", "descriptio": null, "category": null, "person": "wakasa " }, "geometry": { "type": "Point", "coordinates": [ 139.4352614, 35.5317684 ] } },
{ "type": "Feature", "properties": { "id": 85, "X": 139.434843, "Y": 35.5320565, "Name": "歩きスマホが多い", "descriptio": null, "category": null, "person": "wakasa " }, "geometry": { "type": "Point", "coordinates": [ 139.434843, 35.5320565 ] } },
{ "type": "Feature", "properties": { "id": 86, "X": 139.4323669, "Y": 35.532188, "Name": "自転車がよく通る", "descriptio": null, "category": null, "person": "yamaguchi " }, "geometry": { "type": "Point", "coordinates": [ 139.4323669, 35.532188 ] } },
{ "type": "Feature", "properties": { "id": 87, "X": 139.4314186, "Y": 35.5321351, "Name": "業務スーパーに行く自転車", "descriptio": null, "category": null, "person": "yamamuro " }, "geometry": { "type": "Point", "coordinates": [ 139.4314186, 35.5321351 ] } },
{ "type": "Feature", "properties": { "id": 88, "X": 139.4306973, "Y": 35.5320762, "Name": "交差点を渡る自転車", "descriptio": null, "category": null, "person": "yamamuro " }, "geometry": { "type": "Point", "coordinates": [ 139.4306973, 35.5320762 ] } },
{ "type": "Feature", "properties": { "id": 89, "X": 139.4366043, "Y": 35.5318996, "Name": "ティッシュ配り", "descriptio": null, "category": null, "person": "yamamuro " }, "geometry": { "type": "Point", "coordinates": [ 139.4366043, 35.5318996 ] } },
{ "type": "Feature", "properties": { "id": 90, "X": 139.4346077, "Y": 35.5325231, "Name": "整体の広告配る人", "descriptio": null, "category": null, "person": "yamamuro " }, "geometry": { "type": "Point", "coordinates": [ 139.434607699999987, 35.5325231 ] } },
{ "type": "Feature", "properties": { "id": 91, "X": 139.4301635, "Y": 35.5320138, "Name": "すれ違う自転車", "descriptio": null, "category": null, "person": "yamamuro " }, "geometry": { "type": "Point", "coordinates": [ 139.4301635, 35.5320138 ] } },
{ "type": "Feature", "properties": { "id": 92, "X": 139.4343616, "Y": 35.5323038, "Name": "黄信号で行こうとする車", "descriptio": null, "category": null, "person": "yamamuro " }, "geometry": { "type": "Point", "coordinates": [ 139.434361599999988, 35.5323038 ] } },
{ "type": "Feature", "properties": { "id": 93, "X": 139.4307494, "Y": 35.5320668, "Name": "信号が変わるのが早い", "descriptio": null, "category": null, "person": "yamamuro " }, "geometry": { "type": "Point", "coordinates": [ 139.4307494, 35.5320668 ] } },
{ "type": "Feature", "properties": { "id": 94, "X": 139.4337737, "Y": 35.5323589, "Name": "急いで交差点を渡ろうとする自転車", "descriptio": null, "category": null, "person": "yamamuro " }, "geometry": { "type": "Point", "coordinates": [ 139.433773699999989, 35.5323589 ] } },
{ "type": "Feature", "properties": { "id": 95, "X": 139.4349938, "Y": 35.5328674, "Name": "道が狭い", "descriptio": null, "category": null, "person": "yamamuro " }, "geometry": { "type": "Point", "coordinates": [ 139.4349938, 35.5328674 ] } },
{ "type": "Feature", "properties": { "id": 96, "X": 139.4353688, "Y": 35.5318325, "Name": "喫煙所なのかタバコ吸ってる人たちがいっぱいいる", "descriptio": null, "category": null, "person": "yamamuro " }, "geometry": { "type": "Point", "coordinates": [ 139.4353688, 35.5318325 ] } },
{ "type": "Feature", "properties": { "id": 97, "X": 139.430528, "Y": 35.5327502, "Name": "門を出たときにちょうど来た自転車", "descriptio": null, "category": null, "person": "yamamuro " }, "geometry": { "type": "Point", "coordinates": [ 139.430528, 35.5327502 ] } },
{ "type": "Feature", "properties": { "id": 98, "X": 139.4306157, "Y": 35.5320927, "Name": "急に走り出す子供", "descriptio": null, "category": null, "person": "nakamura" }, "geometry": { "type": "Point", "coordinates": [ 139.4306157, 35.5320927 ] } },
{ "type": "Feature", "properties": { "id": 99, "X": 139.4314403, "Y": 35.5320949, "Name": "猛スピードでくる自転車", "descriptio": null, "category": null, "person": "nakamura" }, "geometry": { "type": "Point", "coordinates": [ 139.4314403, 35.5320949 ] } },
{ "type": "Feature", "properties": { "id": 100, "X": 139.4366238, "Y": 35.5317939, "Name": "ハト", "descriptio": null, "category": null, "person": "nakamura" }, "geometry": { "type": "Point", "coordinates": [ 139.4366238, 35.5317939 ] } },
{ "type": "Feature", "properties": { "id": 101, "X": 139.4294153, "Y": 35.5335807, "Name": "セミ", "descriptio": "命尽きたセミが落ちている", "category": null, "person": "nakamura" }, "geometry": { "type": "Point", "coordinates": [ 139.429415299999988, 35.5335807 ] } },
{ "type": "Feature", "properties": { "id": 102, "X": 139.4355675, "Y": 35.5316131, "Name": "車に注意", "descriptio": "駐車していたり、バスで隠れて見えないが2車線なので車が急に出てくる！", "category": null, "person": "nakamura" }, "geometry": { "type": "Point", "coordinates": [ 139.4355675, 35.5316131 ] } },
{ "type": "Feature", "properties": { "id": 103, "X": 139.4319165, "Y": 35.5321466, "Name": "歩道を走る自転車", "descriptio": null, "category": null, "person": "nakamura" }, "geometry": { "type": "Point", "coordinates": [ 139.4319165, 35.5321466 ] } },
{ "type": "Feature", "properties": { "id": 104, "X": 139.4371723, "Y": 35.5319035, "Name": "ハト", "descriptio": null, "category": null, "person": "nakamura " }, "geometry": { "type": "Point", "coordinates": [ 139.437172299999986, 35.5319035 ] } },
{ "type": "Feature", "properties": { "id": 105, "X": 139.4306169, "Y": 35.532312, "Name": "整備されていない道", "descriptio": "へこみがあってよくつまづく", "category": null, "person": "nakamura " }, "geometry": { "type": "Point", "coordinates": [ 139.4306169, 35.532312 ] } },
{ "type": "Feature", "properties": { "id": 106, "X": 139.4371072, "Y": 35.5319515, "Name": "勧誘", "descriptio": null, "category": null, "person": "nakamura" }, "geometry": { "type": "Point", "coordinates": [ 139.437107200000014, 35.5319515 ] } },
{ "type": "Feature", "properties": { "id": 107, "X": 139.4306772, "Y": 35.5320556, "Name": "早く変わる信号", "descriptio": null, "category": null, "person": "nakamura " }, "geometry": { "type": "Point", "coordinates": [ 139.4306772, 35.5320556 ] } }
]
}
